$GNRMC,102018.089,A,3544.5149,N,05129.9796,E,0.16,359.99,190923,,,A*72
$GNRMC,102019.089,A,3544.5147,N,05129.9788,E,0.04,260.12,190923,,,A*79
$GNRMC,102021.000,A,3544.5147,N,05129.9787,E,0.03,160.23,190923,,,A*7A
$GNRMC,102022.000,A,3544.5147,N,05129.9787,E,0.03,16.45,190923,,,A*49
$GNRMC,102023.000,A,3544.5148,N,05129.9786,E,0.10,328.52,190923,,,A*7C
$GNRMC,102024.000,A,3544.5149,N,05129.9787,E,0.12,95.14,190923,,,A*4E
$GNRMC,102025.000,A,3544.5149,N,05129.9786,E,0.15,4.91,190923,,,A*7C
$GNRMC,102026.000,A,3544.5150,N,05129.9788,E,0.18,16.22,190923,,,A*4F
$GNRMC,102028.000,A,3544.5150,N,05129.9790,E,0.10,108.84,190923,,,A*72
$GNRMC,102029.000,A,3544.5150,N,05129.9791,E,0.16,90.19,190923,,,A*40
$GNRMC,102030.000,A,3544.5152,N,05129.9793,E,0.31,43.58,190923,,,A*46
$GNRMC,102031.000,A,3544.5152,N,05129.9797,E,0.25,50.87,190923,,,A*46
$GNRMC,102032.000,A,3544.5152,N,05129.9799,E,0.21,63.18,190923,,,A*49
$GNRMC,102033.000,A,3544.5152,N,05129.9801,E,0.20,77.62,190923,,,A*4F
$GNRMC,102035.000,A,3544.5151,N,05129.9805,E,0.12,79.43,190923,,,A*42
$GNRMC,102036.000,A,3544.5150,N,05129.9806,E,0.09,37.72,190923,,,A*41
$GNRMC,102037.000,A,3544.5148,N,05129.9807,E,0.03,342.30,190923,,,A*75
$GNRMC,102038.000,A,3544.5148,N,05129.9809,E,0.16,166.50,190923,,,A*72
$GNRMC,102039.000,A,3544.5146,N,05129.9809,E,0.14,314.81,190923,,,A*74
$GNRMC,102040.000,A,3544.5147,N,05129.9810,E,0.13,13.65,190923,,,A*4A
$GNRMC,102041.000,A,3544.5145,N,05129.9811,E,0.11,90.18,190923,,,A*4B
$GNRMC,102043.000,A,3544.5142,N,05129.9811,E,0.09,109.94,190923,,,A*72
$GNRMC,102044.000,A,3544.5139,N,05129.9809,E,0.09,219.82,190923,,,A*75
$GNRMC,102045.000,A,3544.5137,N,05129.9809,E,0.09,166.22,190923,,,A*7B
$GNRMC,102046.000,A,3544.5135,N,05129.9808,E,0.10,186.87,190923,,,A*72
$GNRMC,102047.000,A,3544.5134,N,05129.9807,E,0.10,137.65,190923,,,A*7B
$GNRMC,102048.000,A,3544.5133,N,05129.9809,E,0.11,122.25,190923,,,A*7C
$GNRMC,102050.000,A,3544.5131,N,05129.9808,E,0.12,64.04,190923,,,A*45
$GNRMC,102051.000,A,3544.5130,N,05129.9808,E,0.12,133.98,190923,,,A*73
$GNRMC,102052.000,A,3544.5127,N,05129.9806,E,0.12,188.49,190923,,,A*74
$GNRMC,102053.000,A,3544.5127,N,05129.9806,E,0.12,124.00,190923,,,A*7E
$GNRMC,102054.000,A,3544.5127,N,05129.9806,E,0.11,119.15,190923,,,A*70
$GNRMC,102055.000,A,3544.5126,N,05129.9806,E,0.11,153.92,190923,,,A*71
$GNRMC,102057.000,A,3544.5125,N,05129.9806,E,0.09,97.82,190923,,,A*41
$GNRMC,102058.000,A,3544.5126,N,05129.9806,E,0.08,44.79,190923,,,A*46
$GNRMC,102059.000,A,3544.5126,N,05129.9806,E,0.08,338.30,190923,,,A*72
$GNRMC,102100.000,A,3544.5127,N,05129.9806,E,0.07,7.99,190923,,,A*7D
$GNRMC,102101.000,A,3544.5128,N,05129.9807,E,0.07,43.18,190923,,,A*4B
$GNRMC,102102.000,A,3544.5129,N,05129.9807,E,0.07,1.56,190923,,,A*75
$GNRMC,102104.000,A,3544.5129,N,05129.9807,E,0.06,69.99,190923,,,A*4F
$GNRMC,102105.000,A,3544.5129,N,05129.9807,E,0.06,84.01,190923,,,A*4C
$GNRMC,102106.000,A,3544.5129,N,05129.9807,E,0.07,72.43,190923,,,A*41
$GNRMC,102107.000,A,3544.5129,N,05129.9806,E,0.07,58.62,190923,,,A*4A
$GNRMC,102108.000,A,3544.5128,N,05129.9805,E,0.08,58.00,190923,,,A*4C
$GNRMC,102109.000,A,3544.5128,N,05129.9804,E,0.07,221.36,190923,,,A*7A
$GNRMC,102111.000,A,3544.5121,N,05129.9800,E,0.29,186.79,190923,,,A*77
$GNRMC,102112.000,A,3544.5106,N,05129.9796,E,0.71,176.15,190923,,,A*79
$GNRMC,102113.000,A,3544.5086,N,05129.9792,E,8.52,183.42,190923,,,A*74
$GNRMC,102114.000,A,3544.5058,N,05129.9785,E,9.57,186.83,190923,,,A*7A
$GNRMC,102115.000,A,3544.5030,N,05129.9779,E,10.78,189.42,190923,,,A*41
$GNRMC,102116.000,A,3544.4996,N,05129.9772,E,13.09,189.61,190923,,,A*49
$GNRMC,102118.000,A,3544.4908,N,05129.9754,E,17.12,187.45,190923,,,A*42
$GNRMC,102119.000,A,3544.4858,N,05129.9745,E,18.10,187.93,190923,,,A*41
$GNRMC,102120.000,A,3544.4808,N,05129.9736,E,18.76,188.52,190923,,,A*48
$GNRMC,102121.000,A,3544.4756,N,05129.9726,E,19.03,188.19,190923,,,A*40
$GNRMC,102122.000,A,3544.4704,N,05129.9717,E,18.78,189.29,190923,,,A*49
$GNRMC,102123.000,A,3544.4652,N,05129.9707,E,15.97,189.55,190923,,,A*4C
$GNRMC,102124.000,A,3544.4602,N,05129.9698,E,16.80,188.77,190923,,,A*4D
$GNRMC,102126.000,A,3544.4503,N,05129.9679,E,18.05,188.61,190923,,,A*46
$GNRMC,102127.000,A,3544.4457,N,05129.9670,E,17.95,189.29,190923,,,A*45
$GNRMC,102128.000,A,3544.4419,N,05129.9662,E,17.47,190.69,190923,,,A*40
$GNRMC,102129.000,A,3544.4387,N,05129.9654,E,16.87,189.36,190923,,,A*4B
$GNRMC,102130.000,A,3544.4355,N,05129.9647,E,16.23,187.97,190923,,,A*45
$GNRMC,102131.000,A,3544.4321,N,05129.9641,E,15.64,188.28,190923,,,A*4A
$GNRMC,102133.000,A,3544.4234,N,05129.9626,E,15.38,187.58,190923,,,A*4D
$GNRMC,102134.000,A,3544.4182,N,05129.9616,E,15.50,188.58,190923,,,A*46
$GNRMC,102135.000,A,3544.4130,N,05129.9605,E,15.64,188.55,190923,,,A*46
$GNRMC,102136.000,A,3544.4073,N,05129.9595,E,21.13,188.76,190923,,,A*4F
$GNRMC,102137.000,A,3544.4014,N,05129.9583,E,22.45,188.01,190923,,,A*48
$GNRMC,102138.000,A,3544.3951,N,05129.9572,E,23.12,189.13,190923,,,D*42
$GNRMC,102140.000,A,3544.3820,N,05129.9546,E,23.36,188.61,190923,,,D*4F
$GNRMC,102141.000,A,3544.3755,N,05129.9534,E,22.49,188.29,190923,,,D*43
$GNRMC,102142.000,A,3544.3694,N,05129.9522,E,21.26,188.29,190923,,,D*41
$GNRMC,102143.000,A,3544.3637,N,05129.9510,E,19.93,188.98,190923,,,D*47
$GNRMC,102144.000,A,3544.3582,N,05129.9500,E,18.38,189.77,190923,,,D*4C
$GNRMC,102145.000,A,3544.3533,N,05129.9488,E,16.10,190.27,190923,,,D*4F
$GNRMC,102147.000,A,3544.3461,N,05129.9470,E,9.93,194.10,190923,,,D*79
$GNRMC,102148.000,A,3544.3438,N,05129.9459,E,8.12,206.43,190923,,,D*77
$GNRMC,102149.000,A,3544.3420,N,05129.9445,E,7.59,218.35,190923,,,D*7C
$GNRMC,102150.000,A,3544.3407,N,05129.9426,E,7.37,230.64,190923,,,D*72
$GNRMC,102151.000,A,3544.3399,N,05129.9401,E,9.27,250.38,190923,,,D*76
$GNRMC,102152.000,A,3544.3393,N,05129.9369,E,10.64,265.38,190923,,,D*4F
$GNRMC,102154.000,A,3544.3398,N,05129.9298,E,10.37,279.68,190923,,,D*43
$GNRMC,102155.000,A,3544.3406,N,05129.9252,E,11.64,279.23,190923,,,D*4C
$GNRMC,102156.000,A,3544.3411,N,05129.9211,E,12.76,279.44,190923,,,D*4F
$GNRMC,102157.000,A,3544.3422,N,05129.9169,E,12.74,278.83,190923,,,D*4A
$GNRMC,102158.000,A,3544.3429,N,05129.9127,E,12.32,278.29,190923,,,D*46
$GNRMC,102159.000,A,3544.3436,N,05129.9082,E,13.79,281.92,190923,,,D*4F
$GNRMC,102201.000,A,3544.3454,N,05129.8967,E,17.54,278.51,190923,,,D*44
$GNRMC,102202.000,A,3544.3461,N,05129.8906,E,18.32,276.98,190923,,,D*42
$GNRMC,102203.000,A,3544.3468,N,05129.8843,E,18.88,277.80,190923,,,D*43
$GNRMC,102204.000,A,3544.3476,N,05129.8779,E,18.83,278.77,190923,,,D*41
$GNRMC,102205.000,A,3544.3487,N,05129.8718,E,18.19,278.53,190923,,,D*4C
$GNRMC,102206.000,A,3544.3494,N,05129.8657,E,17.72,278.98,190923,,,D*42
$GNRMC,102208.000,A,3544.3509,N,05129.8540,E,16.98,277.93,190923,,,D*4D
$GNRMC,102209.000,A,3544.3516,N,05129.8482,E,17.42,277.90,190923,,,D*48
$GNRMC,102210.000,A,3544.3524,N,05129.8422,E,18.10,277.98,190923,,,D*4B
$GNRMC,102211.000,A,3544.3532,N,05129.8360,E,18.53,278.34,190923,,,D*42
$GNRMC,102212.000,A,3544.3540,N,05129.8298,E,18.16,278.36,190923,,,D*41
$GNRMC,102213.000,A,3544.3547,N,05129.8237,E,17.92,278.69,190923,,,D*4B
$GNRMC,102214.000,A,3544.3556,N,05129.8176,E,18.11,278.46,190923,,,D*43
$GNRMC,102216.000,A,3544.3572,N,05129.8055,E,17.65,278.81,190923,,,D*40
$GNRMC,102217.000,A,3544.3580,N,05129.7996,E,17.23,278.84,190923,,,D*42
$GNRMC,102218.000,A,3544.3587,N,05129.7939,E,16.62,279.40,190923,,,D*42
$GNRMC,102219.000,A,3544.3594,N,05129.7884,E,15.94,279.18,190923,,,D*41
$GNRMC,102220.000,A,3544.3601,N,05129.7831,E,15.45,279.04,190923,,,D*4B
$GNRMC,102221.000,A,3544.3608,N,05129.7779,E,15.77,279.12,190923,,,D*46
$GNRMC,102223.000,A,3544.3613,N,05129.7681,E,14.49,276.86,190923,,,D*46
$GNRMC,102224.000,A,3544.3626,N,05129.7640,E,13.22,280.50,190923,,,D*42
$GNRMC,102225.000,A,3544.3638,N,05129.7593,E,11.95,283.45,190923,,,D*48
$GNRMC,102226.000,A,3544.3650,N,05129.7557,E,11.08,285.22,190923,,,D*4E
$GNRMC,102227.000,A,3544.3662,N,05129.7522,E,10.84,293.21,190923,,,D*4D
$GNRMC,102228.000,A,3544.3672,N,05129.7491,E,8.51,283.65,190923,,,D*7A
$GNRMC,102230.000,A,3544.3673,N,05129.7452,E,3.57,276.30,190923,,,D*7A
$GNRMC,102231.000,A,3544.3674,N,05129.7442,E,2.18,276.30,190923,,,D*77
$GNRMC,102232.000,A,3544.3676,N,05129.7436,E,1.56,276.30,190923,,,D*7C
$GNRMC,102233.000,A,3544.3677,N,05129.7430,E,2.08,276.30,190923,,,D*72
$GNRMC,102234.000,A,3544.3678,N,05129.7420,E,3.38,276.04,190923,,,D*7E
$GNRMC,102235.000,A,3544.3679,N,05129.7406,E,4.92,272.67,190923,,,D*7C
$GNRMC,102237.000,A,3544.3671,N,05129.7360,E,7.65,254.37,190923,,,D*7B
$GNRMC,102238.000,A,3544.3657,N,05129.7334,E,8.77,234.06,190923,,,D*79
$GNRMC,102239.000,A,3544.3637,N,05129.7311,E,8.51,220.16,190923,,,D*79
$GNRMC,102240.000,A,3544.3616,N,05129.7295,E,9.16,205.96,190923,,,D*74
$GNRMC,102241.000,A,3544.3590,N,05129.7283,E,10.32,196.11,190923,,,D*47
$GNRMC,102242.000,A,3544.3560,N,05129.7274,E,11.74,189.67,190923,,,D*4F
$GNRMC,102244.000,A,3544.3482,N,05129.7257,E,15.20,187.33,190923,,,D*4F
$GNRMC,102245.000,A,3544.3436,N,05129.7250,E,17.78,186.49,190923,,,D*45
$GNRMC,102246.000,A,3544.3377,N,05129.7240,E,21.39,187.64,190923,,,D*4B
$GNRMC,102247.000,A,3544.3316,N,05129.7235,E,22.47,188.72,190923,,,D*4D
$GNRMC,102248.000,A,3544.3250,N,05129.7227,E,24.29,188.38,190923,,,D*42
$GNRMC,102249.000,A,3544.3181,N,05129.7215,E,25.85,188.25,190923,,,D*46
$GNRMC,102251.000,A,3544.3036,N,05129.7189,E,26.63,188.63,190923,,,D*4D
$GNRMC,102252.000,A,3544.2963,N,05129.7175,E,26.79,189.27,190923,,,D*4F
$GNRMC,102253.000,A,3544.2890,N,05129.7160,E,26.82,188.88,190923,,,D*47
$GNRMC,102254.000,A,3544.2816,N,05129.7146,E,27.09,188.51,190923,,,D*4C
$GNRMC,102255.000,A,3544.2741,N,05129.7133,E,27.48,188.78,190923,,,D*4C
$GNRMC,102256.000,A,3544.2664,N,05129.7118,E,27.80,188.96,190923,,,D*44
$GNRMC,102258.000,A,3544.2511,N,05129.7089,E,28.00,188.75,190923,,,D*48
$GNRMC,102259.000,A,3544.2437,N,05129.7074,E,26.30,189.03,190923,,,D*43
$GNRMC,102300.000,A,3544.2370,N,05129.7061,E,23.25,189.08,190923,,,D*44
$GNRMC,102301.000,A,3544.2311,N,05129.7049,E,19.51,189.22,190923,,,D*4A
$GNRMC,102302.000,A,3544.2261,N,05129.7039,E,17.31,190.25,190923,,,D*4F
$GNRMC,102303.000,A,3544.2218,N,05129.7028,E,14.99,191.03,190923,,,D*44
$GNRMC,102305.000,A,3544.2135,N,05129.7012,E,15.07,188.44,190923,,,D*4A
$GNRMC,102306.000,A,3544.2090,N,05129.7005,E,17.43,188.24,190923,,,D*45
$GNRMC,102307.000,A,3544.2039,N,05129.6996,E,19.65,187.86,190923,,,D*48
$GNRMC,102308.000,A,3544.1985,N,05129.6987,E,19.70,187.95,190923,,,D*4C
$GNRMC,102309.000,A,3544.1932,N,05129.6978,E,19.24,188.42,190923,,,D*45
$GNRMC,102310.000,A,3544.1879,N,05129.6968,E,18.98,188.33,190923,,,D*42
$GNRMC,102311.000,A,3544.1827,N,05129.6959,E,18.99,188.16,190923,,,D*4C
$GNRMC,102313.000,A,3544.1718,N,05129.6941,E,20.55,187.30,190923,,,D*44
$GNRMC,102314.000,A,3544.1662,N,05129.6931,E,20.12,188.98,190923,,,D*46
$GNRMC,102315.000,A,3544.1612,N,05129.6918,E,17.27,194.62,190923,,,D*41
$GNRMC,102316.000,A,3544.1571,N,05129.6901,E,14.05,200.66,190923,,,D*45
$GNRMC,102317.000,A,3544.1540,N,05129.6885,E,9.84,206.08,190923,,,D*70
$GNRMC,102318.000,A,3544.1521,N,05129.6873,E,6.19,210.86,190923,,,D*7B
$GNRMC,102320.000,A,3544.1502,N,05129.6852,E,5.67,219.29,190923,,,D*74
$GNRMC,102321.000,A,3544.1493,N,05129.6839,E,6.11,220.11,190923,,,D*72
$GNRMC,102322.000,A,3544.1484,N,05129.6827,E,5.12,221.73,190923,,,D*7D
$GNRMC,102323.000,A,3544.1477,N,05129.6816,E,4.84,224.42,190923,,,D*7B
$GNRMC,102324.000,A,3544.1469,N,05129.6798,E,6.71,237.23,190923,,,D*77
$GNRMC,102325.000,A,3544.1465,N,05129.6767,E,10.00,250.07,190923,,,D*4C
$GNRMC,102327.000,A,3544.1468,N,05129.6673,E,14.51,273.85,190923,,,D*4C
$GNRMC,102328.000,A,3544.1476,N,05129.6617,E,16.72,277.49,190923,,,D*49
$GNRMC,102329.000,A,3544.1489,N,05129.6557,E,19.50,277.10,190923,,,D*4C
$GNRMC,102330.000,A,3544.1502,N,05129.6488,E,21.62,278.11,190923,,,D*41
$GNRMC,102331.000,A,3544.1517,N,05129.6410,E,23.00,280.04,190923,,,D*40
$GNRMC,102332.000,A,3544.1527,N,05129.6332,E,22.72,279.81,190923,,,D*48
$GNRMC,102333.000,A,3544.1538,N,05129.6257,E,21.76,280.23,190923,,,D*4C
$GNRMC,102335.000,A,3544.1561,N,05129.6110,E,23.03,279.10,190923,,,D*40
$GNRMC,102336.000,A,3544.1571,N,05129.6028,E,24.74,278.84,190923,,,D*43
$GNRMC,102337.000,A,3544.1580,N,05129.5942,E,25.40,278.71,190923,,,D*46
$GNRMC,102338.000,A,3544.1590,N,05129.5854,E,25.88,279.12,190923,,,D*4E
$GNRMC,102339.000,A,3544.1603,N,05129.5765,E,26.42,279.29,190923,,,D*46
$GNRMC,102340.000,A,3544.1616,N,05129.5673,E,26.91,279.03,190923,,,D*4C
$GNRMC,102342.000,A,3544.1640,N,05129.5491,E,26.47,279.16,190923,,,D*4C
$GNRMC,102343.000,A,3544.1651,N,05129.5403,E,25.47,279.33,190923,,,D*42
$GNRMC,102344.000,A,3544.1662,N,05129.5317,E,24.64,279.74,190923,,,D*44
$GNRMC,102345.000,A,3544.1671,N,05129.5234,E,23.94,280.00,190923,,,D*4A
$GNRMC,102346.000,A,3544.1681,N,05129.5154,E,23.06,280.25,190923,,,D*4F
$GNRMC,102347.000,A,3544.1691,N,05129.5078,E,22.13,280.98,190923,,,D*43
$GNRMC,102349.000,A,3544.1711,N,05129.4939,E,19.17,280.52,190923,,,D*43
$GNRMC,102350.000,A,3544.1720,N,05129.4876,E,18.29,280.51,190923,,,D*4C
$GNRMC,102351.000,A,3544.1729,N,05129.4813,E,18.78,282.08,190923,,,D*4D
$GNRMC,102352.000,A,3544.1742,N,05129.4746,E,20.30,285.36,190923,,,D*41
$GNRMC,102353.000,A,3544.1760,N,05129.4677,E,22.58,289.18,190923,,,D*4F
$GNRMC,102354.000,A,3544.1783,N,05129.4600,E,24.83,290.34,190923,,,D*43
$GNRMC,102355.000,A,3544.1808,N,05129.4517,E,26.60,289.51,190923,,,D*4F
$GNRMC,102357.000,A,3544.1854,N,05129.4334,E,29.04,284.34,190923,,,D*40
$GNRMC,102358.000,A,3544.1875,N,05129.4236,E,29.67,283.19,190923,,,D*42
$GNRMC,102359.000,A,3544.1893,N,05129.4136,E,30.36,282.31,190923,,,D*4F
$GNRMC,102400.000,A,3544.1910,N,05129.4033,E,30.40,281.17,190923,,,D*4C
$GNRMC,102401.000,A,3544.1926,N,05129.3930,E,29.99,280.66,190923,,,D*4E
$GNRMC,102402.000,A,3544.1940,N,05129.3828,E,29.98,280.30,190923,,,D*47
$GNRMC,102404.000,A,3544.1973,N,05129.3616,E,32.39,281.92,190923,,,D*4A
$GNRMC,102405.000,A,3544.1992,N,05129.3503,E,33.70,282.60,190923,,,D*41
$GNRMC,102406.000,A,3544.2014,N,05129.3386,E,35.77,282.82,190923,,,D*40
$GNRMC,102407.000,A,3544.2037,N,05129.3262,E,37.74,283.37,190923,,,D*45
$GNRMC,102408.000,A,3544.2063,N,05129.3135,E,38.81,284.15,190923,,,D*48
$GNRMC,102409.000,A,3544.2091,N,05129.3003,E,39.93,284.24,190923,,,D*40
$GNRMC,102411.000,A,3544.2144,N,05129.2739,E,38.09,283.09,190923,,,D*45
$GNRMC,102412.000,A,3544.2169,N,05129.2611,E,38.08,281.72,190923,,,D*4D
$GNRMC,102413.000,A,3544.2191,N,05129.2484,E,38.05,280.73,190923,,,D*48
$GNRMC,102414.000,A,3544.2212,N,05129.2352,E,39.57,280.13,190923,,,D*4B
$GNRMC,102415.000,A,3544.2233,N,05129.2219,E,38.61,279.65,190923,,,D*44
$GNRMC,102416.000,A,3544.2253,N,05129.2090,E,38.22,280.18,190923,,,D*49
$GNRMC,102418.000,A,3544.2301,N,05129.1838,E,36.70,281.70,190923,,,D*4E
$GNRMC,102419.000,A,3544.2323,N,05129.1718,E,35.49,282.45,190923,,,D*4E
$GNRMC,102420.000,A,3544.2344,N,05129.1603,E,34.12,283.03,190923,,,D*42
$GNRMC,102421.000,A,3544.2363,N,05129.1493,E,32.71,284.09,190923,,,D*43
$GNRMC,102422.000,A,3544.2382,N,05129.1387,E,31.32,283.56,190923,,,D*44
$GNRMC,102423.000,A,3544.2400,N,05129.1285,E,30.47,282.76,190923,,,D*4B
$GNRMC,102424.000,A,3544.2416,N,05129.1184,E,30.41,283.43,190923,,,D*48
$GNRMC,102426.000,A,3544.2457,N,05129.0996,E,26.35,288.91,190923,,,D*45
$GNRMC,102427.000,A,3544.2483,N,05129.0919,E,23.33,294.86,190923,,,D*42
$GNRMC,102428.000,A,3544.2521,N,05129.0859,E,22.49,309.78,190923,,,D*49
$GNRMC,102429.000,A,3544.2570,N,05129.0819,E,21.03,320.36,190923,,,D*44
$GNRMC,102430.000,A,3544.2625,N,05129.0798,E,19.35,332.63,190923,,,D*44
$GNRMC,102431.000,A,3544.2681,N,05129.0786,E,19.79,342.12,190923,,,D*4D
$GNRMC,102433.000,A,3544.2791,N,05129.0755,E,19.82,343.24,190923,,,D*41
$GNRMC,102434.000,A,3544.2844,N,05129.0739,E,20.07,344.27,190923,,,D*48
$GNRMC,102435.000,A,3544.2896,N,05129.0719,E,19.84,341.43,190923,,,D*42
$GNRMC,102436.000,A,3544.2946,N,05129.0695,E,19.07,338.79,190923,,,D*44
$GNRMC,102437.000,A,3544.2994,N,05129.0670,E,17.77,335.29,190923,,,D*40
$GNRMC,102438.000,A,3544.3038,N,05129.0643,E,17.70,330.82,190923,,,D*42
$GNRMC,102440.000,A,3544.3125,N,05129.0562,E,21.35,317.08,190923,,,D*43
$GNRMC,102441.000,A,3544.3164,N,05129.0505,E,21.95,308.51,190923,,,D*4E
$GNRMC,102442.000,A,3544.3197,N,05129.0446,E,19.88,303.24,190923,,,D*49
$GNRMC,102443.000,A,3544.3221,N,05129.0390,E,17.00,295.52,190923,,,D*4B
$GNRMC,102444.000,A,3544.3237,N,05129.0336,E,16.59,283.87,190923,,,D*45
$GNRMC,102445.000,A,3544.3245,N,05129.0276,E,18.55,278.91,190923,,,D*45
$GNRMC,102446.000,A,3544.3247,N,05129.0208,E,20.94,273.58,190923,,,D*45
$GNRMC,102448.000,A,3544.3232,N,05129.0056,E,22.81,253.26,190923,,,D*4D
$GNRMC,102449.000,A,3544.3210,N,05128.9983,E,21.81,247.39,190923,,,D*4D
$GNRMC,102450.000,A,3544.3180,N,05128.9916,E,22.16,239.15,190923,,,D*49
$GNRMC,102451.000,A,3544.3143,N,05128.9853,E,23.29,232.35,190923,,,D*43
$GNRMC,102452.000,A,3544.3098,N,05128.9793,E,23.55,226.15,190923,,,D*48
$GNRMC,102453.000,A,3544.3046,N,05128.9739,E,24.72,218.08,190923,,,D*49
$GNRMC,102455.000,A,3544.2914,N,05128.9655,E,27.22,201.54,190923,,,D*4C
$GNRMC,102456.000,A,3544.2840,N,05128.9630,E,27.28,191.14,190923,,,D*48
$GNRMC,102457.000,A,3544.2763,N,05128.9621,E,27.78,184.03,190923,,,D*40
$GNRMC,102458.000,A,3544.2686,N,05128.9621,E,28.23,179.56,190923,,,D*46
$GNRMC,102459.000,A,3544.2608,N,05128.9622,E,27.95,179.83,190923,,,D*48
$GNRMC,102500.000,A,3544.2529,N,05128.9629,E,28.62,176.60,190923,,,D*4B
$GNRMC,102502.000,A,3544.2345,N,05128.9642,E,32.84,177.68,190923,,,D*42
$GNRMC,102503.000,A,3544.2253,N,05128.9643,E,33.13,178.94,190923,,,D*47
$GNRMC,102504.000,A,3544.2161,N,05128.9640,E,33.33,182.67,190923,,,D*4A
$GNRMC,102505.000,A,3544.2070,N,05128.9625,E,33.81,188.66,190923,,,D*4B
$GNRMC,102506.000,A,3544.1976,N,05128.9606,E,33.89,189.94,190923,,,D*41
$GNRMC,102507.000,A,3544.1884,N,05128.9588,E,33.64,189.20,190923,,,D*45
$GNRMC,102509.000,A,3544.1698,N,05128.9555,E,34.45,187.96,190923,,,D*4F
$GNRMC,102510.000,A,3544.1600,N,05128.9539,E,36.24,188.01,190923,,,D*48
$GNRMC,102511.000,A,3544.1498,N,05128.9523,E,37.84,187.50,190923,,,D*41
$GNRMC,102512.000,A,3544.1393,N,05128.9513,E,38.47,188.09,190923,,,D*4E
$GNRMC,102513.000,A,3544.1289,N,05128.9493,E,37.95,190.34,190923,,,D*4B
$GNRMC,102514.000,A,3544.1186,N,05128.9468,E,37.18,192.02,190923,,,D*46
$GNRMC,102515.000,A,3544.1084,N,05128.9440,E,37.54,195.65,190923,,,D*40
$GNRMC,102517.000,A,3544.0888,N,05128.9348,E,37.98,204.51,190923,,,D*44
$GNRMC,102518.000,A,3544.0794,N,05128.9289,E,38.44,208.02,190923,,,D*41
$GNRMC,102519.000,A,3544.0701,N,05128.9221,E,39.57,211.01,190923,,,D*46
$GNRMC,102520.000,A,3544.0608,N,05128.9142,E,39.81,212.37,190923,,,D*4F
$GNRMC,102521.000,A,3544.0515,N,05128.9068,E,39.73,213.32,190923,,,D*41
$GNRMC,102522.000,A,3544.0424,N,05128.8992,E,39.19,214.90,190923,,,D*4F
$GNRMC,102524.000,A,3544.0252,N,05128.8835,E,37.95,217.28,190923,,,D*48
$GNRMC,102525.000,A,3544.0170,N,05128.8757,E,37.30,217.58,190923,,,D*49
$GNRMC,102526.000,A,3544.0093,N,05128.8677,E,36.67,217.88,190923,,,D*4B
$GNRMC,102527.000,A,3544.0012,N,05128.8601,E,35.92,217.40,190923,,,D*4F
$GNRMC,102528.000,A,3543.9933,N,05128.8532,E,33.51,217.35,190923,,,D*4C
$GNRMC,102529.000,A,3543.9862,N,05128.8463,E,32.13,219.34,190923,,,D*45
$GNRMC,102531.000,A,3543.9727,N,05128.8325,E,31.76,218.28,190923,,,D*4B
$GNRMC,102532.000,A,3543.9661,N,05128.8259,E,31.08,217.66,190923,,,D*4D
$GNRMC,102533.000,A,3543.9597,N,05128.8200,E,30.60,217.29,190923,,,D*4E
$GNRMC,102534.000,A,3543.9535,N,05128.8141,E,28.33,217.37,190923,,,D*47
$GNRMC,102535.000,A,3543.9475,N,05128.8086,E,27.11,217.11,190923,,,D*42
$GNRMC,102536.000,A,3543.9417,N,05128.8034,E,25.89,216.92,190923,,,D*45
$GNRMC,102537.000,A,3543.9368,N,05128.7989,E,25.95,217.61,190923,,,D*4B
$GNRMC,102539.000,A,3543.9265,N,05128.7870,E,24.06,228.78,190923,,,D*41
$GNRMC,102540.000,A,3543.9204,N,05128.7835,E,24.59,219.36,190923,,,D*4B
$GNRMC,102541.000,A,3543.9149,N,05128.7782,E,26.06,215.57,190923,,,D*40
$GNRMC,102542.000,A,3543.9090,N,05128.7713,E,26.94,214.17,190923,,,D*40
$GNRMC,102543.000,A,3543.9026,N,05128.7658,E,28.33,213.67,190923,,,D*41
$GNRMC,102544.000,A,3543.8961,N,05128.7603,E,28.34,215.19,190923,,,D*4B
$GNRMC,102546.000,A,3543.8827,N,05128.7500,E,29.22,215.55,190923,,,D*44
$GNRMC,102547.000,A,3543.8759,N,05128.7458,E,28.53,216.66,190923,,,D*4B
$GNRMC,102548.000,A,3543.8695,N,05128.7403,E,29.07,215.72,190923,,,D*4D
$GNRMC,102549.000,A,3543.8631,N,05128.7346,E,28.72,215.93,190923,,,D*48
$GNRMC,102550.000,A,3543.8557,N,05128.7297,E,29.82,216.17,190923,,,D*4F
$GNRMC,102551.000,A,3543.8485,N,05128.7241,E,30.20,215.07,190923,,,D*49
$GNRMC,102553.000,A,3543.8347,N,05128.7118,E,29.23,214.17,190923,,,D*46
$GNRMC,102554.000,A,3543.8279,N,05128.7061,E,28.58,215.70,190923,,,D*4F
$GNRMC,102555.000,A,3543.8217,N,05128.7000,E,28.52,215.84,190923,,,D*40
$GNRMC,102556.000,A,3543.8154,N,05128.6939,E,29.96,216.84,190923,,,D*4F
$GNRMC,102557.000,A,3543.8089,N,05128.6874,E,31.04,218.00,190923,,,D*47
$GNRMC,102558.000,A,3543.8022,N,05128.6806,E,31.05,219.41,190923,,,D*49
$GNRMC,102600.000,A,3543.7902,N,05128.6657,E,29.35,220.01,190923,,,D*4D
$GNRMC,102601.000,A,3543.7843,N,05128.6596,E,28.37,219.16,190923,,,D*49
$GNRMC,102602.000,A,3543.7787,N,05128.6528,E,28.21,222.24,190923,,,D*46
$GNRMC,102603.000,A,3543.7729,N,05128.6462,E,28.08,223.64,190923,,,D*42
$GNRMC,102604.000,A,3543.7674,N,05128.6394,E,27.62,223.17,190923,,,D*45
$GNRMC,102605.000,A,3543.7622,N,05128.6333,E,26.80,222.61,190923,,,D*47
$GNRMC,102607.000,A,3543.7519,N,05128.6203,E,26.71,222.39,190923,,,D*4F
$GNRMC,102608.000,A,3543.7471,N,05128.6129,E,26.02,223.31,190923,,,D*49
$GNRMC,102609.000,A,3543.7424,N,05128.6064,E,25.40,223.63,190923,,,D*42
$GNRMC,102610.000,A,3543.7374,N,05128.6009,E,25.34,223.83,190923,,,D*4E
$GNRMC,102611.000,A,3543.7324,N,05128.5943,E,25.88,223.84,190923,,,D*4E
$GNRMC,102612.000,A,3543.7265,N,05128.5875,E,26.19,223.74,190923,,,D*49
$GNRMC,102613.000,A,3543.7204,N,05128.5823,E,27.02,223.63,190923,,,D*41
$GNRMC,102615.000,A,3543.7105,N,05128.5690,E,27.51,223.55,190923,,,D*40
$GNRMC,102616.000,A,3543.7051,N,05128.5624,E,27.47,223.32,190923,,,D*4A
$GNRMC,102617.000,A,3543.6990,N,05128.5562,E,27.13,222.78,190923,,,D*41
$GNRMC,102618.000,A,3543.6931,N,05128.5506,E,26.39,222.35,190923,,,D*47
$GNRMC,102619.000,A,3543.6881,N,05128.5450,E,24.90,222.39,190923,,,D*43
$GNRMC,102620.000,A,3543.6837,N,05128.5396,E,23.76,222.43,190923,,,D*4B
$GNRMC,102622.000,A,3543.6747,N,05128.5288,E,23.53,221.57,190923,,,D*4E
$GNRMC,102623.000,A,3543.6692,N,05128.5233,E,23.79,220.70,190923,,,D*4A
$GNRMC,102624.000,A,3543.6641,N,05128.5179,E,24.28,221.42,190923,,,D*4D
$GNRMC,102625.000,A,3543.6583,N,05128.5132,E,25.28,222.33,190923,,,D*4A
$GNRMC,102626.000,A,3543.6528,N,05128.5073,E,26.55,222.72,190923,,,D*40
$GNRMC,102627.000,A,3543.6472,N,05128.5016,E,26.89,223.17,190923,,,D*4F
$GNRMC,102628.000,A,3543.6417,N,05128.4946,E,26.95,222.81,190923,,,D*4D
$GNRMC,102630.000,A,3543.6309,N,05128.4827,E,25.37,222.80,190923,,,D*40
$GNRMC,102631.000,A,3543.6257,N,05128.4781,E,25.08,222.75,190923,,,D*4E
$GNRMC,102632.000,A,3543.6201,N,05128.4714,E,26.82,221.72,190923,,,D*47
$GNRMC,102633.000,A,3543.6147,N,05128.4641,E,28.59,221.52,190923,,,D*4C
$GNRMC,102634.000,A,3543.6091,N,05128.4590,E,29.22,220.91,190923,,,D*4D
$GNRMC,102635.000,A,3543.6027,N,05128.4519,E,29.29,220.44,190923,,,D*43
$GNRMC,102637.000,A,3543.5894,N,05128.4388,E,29.53,220.30,190923,,,D*42
$GNRMC,102638.000,A,3543.5835,N,05128.4319,E,29.08,220.41,190923,,,D*46
$GNRMC,102639.000,A,3543.5777,N,05128.4250,E,28.63,219.99,190923,,,D*41
$GNRMC,102640.000,A,3543.5712,N,05128.4194,E,28.67,219.58,190923,,,D*4E
$GNRMC,102641.000,A,3543.5649,N,05128.4131,E,29.61,219.31,190923,,,D*47
$GNRMC,102642.000,A,3543.5587,N,05128.4067,E,30.32,219.23,190923,,,D*4A
$GNRMC,102644.000,A,3543.5458,N,05128.3920,E,31.20,219.36,190923,,,D*44
$GNRMC,102645.000,A,3543.5387,N,05128.3853,E,31.22,220.18,190923,,,D*41
$GNRMC,102646.000,A,3543.5321,N,05128.3776,E,31.74,221.01,190923,,,D*4C
$GNRMC,102647.000,A,3543.5248,N,05128.3709,E,31.46,222.13,190923,,,D*4A
$GNRMC,102648.000,A,3543.5187,N,05128.3635,E,31.12,222.63,190923,,,D*4D
$GNRMC,102649.000,A,3543.5125,N,05128.3564,E,30.81,223.35,190923,,,D*4A
$GNRMC,102650.000,A,3543.5062,N,05128.3503,E,30.53,224.29,190923,,,D*44
$GNRMC,102652.000,A,3543.4945,N,05128.3369,E,29.86,228.06,190923,,,D*40
$GNRMC,102653.000,A,3543.4892,N,05128.3286,E,29.43,229.93,190923,,,D*4E
$GNRMC,102654.000,A,3543.4845,N,05128.3202,E,28.80,230.64,190923,,,D*41
$GNRMC,102655.000,A,3543.4795,N,05128.3128,E,28.05,231.05,190923,,,D*42
$GNRMC,102656.000,A,3543.4747,N,05128.3051,E,27.29,231.38,190923,,,D*4E
$GNRMC,102657.000,A,3543.4701,N,05128.2980,E,26.73,232.76,190923,,,D*4E
$GNRMC,102659.000,A,3543.4612,N,05128.2831,E,26.31,231.09,190923,,,D*45
$GNRMC,102700.000,A,3543.4565,N,05128.2751,E,27.35,232.63,190923,,,D*48
$GNRMC,102701.000,A,3543.4518,N,05128.2680,E,28.53,233.03,190923,,,D*46
$GNRMC,102702.000,A,3543.4467,N,05128.2584,E,30.70,234.54,190923,,,D*46
$GNRMC,102703.000,A,3543.4423,N,05128.2491,E,33.00,236.42,190923,,,D*43
$GNRMC,102704.000,A,3543.4368,N,05128.2387,E,33.60,238.42,190923,,,D*44
$GNRMC,102706.000,A,3543.4264,N,05128.2192,E,32.10,239.43,190923,,,D*4B
$GNRMC,102707.000,A,3543.4222,N,05128.2105,E,29.15,238.47,190923,,,D*4C
$GNRMC,102708.000,A,3543.4193,N,05128.2036,E,24.37,237.58,190923,,,D*47
$GNRMC,102709.000,A,3543.4164,N,05128.1964,E,22.16,236.83,190923,,,D*41
$GNRMC,102710.000,A,3543.4140,N,05128.1910,E,22.44,233.33,190923,,,D*45
$GNRMC,102711.000,A,3543.4098,N,05128.1847,E,24.92,236.11,190923,,,D*4B
$GNRMC,102713.000,A,3543.4010,N,05128.1687,E,29.45,234.95,190923,,,D*42
$GNRMC,102714.000,A,3543.3962,N,05128.1603,E,29.65,236.09,190923,,,D*47
$GNRMC,102715.000,A,3543.3918,N,05128.1516,E,29.68,236.15,190923,,,D*4C
$GNRMC,102716.000,A,3543.3872,N,05128.1433,E,29.41,235.90,190923,,,D*41
$GNRMC,102717.000,A,3543.3826,N,05128.1351,E,30.45,235.79,190923,,,D*49
$GNRMC,102718.000,A,3543.3780,N,05128.1271,E,27.57,234.40,190923,,,D*48
$GNRMC,102720.000,A,3543.3703,N,05128.1124,E,24.30,237.80,190923,,,D*46
$GNRMC,102721.000,A,3543.3668,N,05128.1056,E,23.88,238.02,190923,,,D*4E
$GNRMC,102722.000,A,3543.3634,N,05128.0987,E,23.71,238.00,190923,,,D*44
$GNRMC,102723.000,A,3543.3605,N,05128.0913,E,24.07,240.69,190923,,,D*4C
$GNRMC,102724.000,A,3543.3575,N,05128.0838,E,24.96,241.18,190923,,,D*48
$GNRMC,102725.000,A,3543.3541,N,05128.0760,E,26.56,240.32,190923,,,D*4B
$GNRMC,102727.000,A,3543.3469,N,05128.0608,E,25.22,241.23,190923,,,D*4C
$GNRMC,102728.000,A,3543.3416,N,05128.0567,E,23.00,233.90,190923,,,D*4A
$GNRMC,102729.000,A,3543.3386,N,05128.0514,E,22.11,235.10,190923,,,D*4E
$GNRMC,102730.000,A,3543.3334,N,05128.0434,E,22.30,234.43,190923,,,D*48
$GNRMC,102731.000,A,3543.3299,N,05128.0371,E,23.08,234.10,190923,,,D*45
$GNRMC,102732.000,A,3543.3262,N,05128.0315,E,23.63,234.52,190923,,,D*4B
$GNRMC,102733.000,A,3543.3225,N,05128.0249,E,24.53,234.52,190923,,,D*45
$GNRMC,102735.000,A,3543.3137,N,05128.0104,E,28.70,233.96,190923,,,D*4B
$GNRMC,102736.000,A,3543.3084,N,05128.0022,E,29.77,234.44,190923,,,D*4A
$GNRMC,102737.000,A,3543.3036,N,05127.9938,E,29.76,234.80,190923,,,D*4F
$GNRMC,102738.000,A,3543.2991,N,05127.9865,E,29.02,234.98,190923,,,D*46
$GNRMC,102739.000,A,3543.2942,N,05127.9789,E,28.09,234.22,190923,,,D*4F
$GNRMC,102740.000,A,3543.2894,N,05127.9704,E,27.75,234.93,190923,,,D*40
$GNRMC,102741.000,A,3543.2853,N,05127.9625,E,28.37,236.39,190923,,,D*43
$GNRMC,102743.000,A,3543.2763,N,05127.9460,E,28.69,236.11,190923,,,D*4F
$GNRMC,102744.000,A,3543.2719,N,05127.9378,E,28.76,236.06,190923,,,D*43
$GNRMC,102745.000,A,3543.2675,N,05127.9299,E,27.96,236.06,190923,,,D*46
$GNRMC,102746.000,A,3543.2635,N,05127.9216,E,28.30,235.99,190923,,,D*40
$GNRMC,102747.000,A,3543.2585,N,05127.9139,E,29.40,235.77,190923,,,D*41
$GNRMC,102748.000,A,3543.2538,N,05127.9055,E,29.44,235.85,190923,,,D*4A
$GNRMC,102750.000,A,3543.2455,N,05127.8888,E,28.99,236.52,190923,,,D*48
$GNRMC,102751.000,A,3543.2405,N,05127.8807,E,28.77,236.47,190923,,,D*4F
$GNRMC,102752.000,A,3543.2368,N,05127.8719,E,28.18,237.32,190923,,,D*4A
$GNRMC,102753.000,A,3543.2318,N,05127.8641,E,28.47,239.35,190923,,,D*43
$GNRMC,102754.000,A,3543.2279,N,05127.8548,E,30.98,240.51,190923,,,D*4F
$GNRMC,102755.000,A,3543.2231,N,05127.8458,E,31.83,239.62,190923,,,D*47
$GNRMC,102757.000,A,3543.2141,N,05127.8287,E,31.85,236.97,190923,,,D*46
$GNRMC,102758.000,A,3543.2102,N,05127.8195,E,31.28,236.62,190923,,,D*43
$GNRMC,102759.000,A,3543.2058,N,05127.8096,E,31.32,237.21,190923,,,D*43
$GNRMC,102800.000,A,3543.2007,N,05127.8024,E,30.66,235.97,190923,,,D*4C
$GNRMC,102801.000,A,3543.1970,N,05127.7943,E,30.87,237.71,190923,,,D*45
$GNRMC,102802.000,A,3543.1922,N,05127.7847,E,30.91,235.92,190923,,,D*4C
$GNRMC,102804.000,A,3543.1807,N,05127.7643,E,35.36,235.58,190923,,,D*48
$GNRMC,102805.000,A,3543.1754,N,05127.7544,E,37.07,236.31,190923,,,D*48
$GNRMC,102806.000,A,3543.1696,N,05127.7433,E,36.88,236.49,190923,,,D*4C
$GNRMC,102807.000,A,3543.1643,N,05127.7324,E,37.90,237.34,190923,,,D*47
$GNRMC,102808.000,A,3543.1582,N,05127.7215,E,39.30,237.04,190923,,,D*42
$GNRMC,102809.000,A,3543.1521,N,05127.7103,E,40.39,235.89,190923,,,D*4E
$GNRMC,102810.000,A,3543.1452,N,05127.6989,E,40.75,235.08,190923,,,D*49
$GNRMC,102812.000,A,3543.1324,N,05127.6769,E,39.48,235.74,190923,,,D*46
$GNRMC,102813.000,A,3543.1272,N,05127.6658,E,37.02,236.44,190923,,,D*46
$GNRMC,102814.000,A,3543.1225,N,05127.6561,E,33.96,237.30,190923,,,D*41
$GNRMC,102815.000,A,3543.1177,N,05127.6462,E,31.37,237.77,190923,,,D*4C
$GNRMC,102816.000,A,3543.1126,N,05127.6381,E,29.46,236.17,190923,,,D*49
$GNRMC,102817.000,A,3543.1069,N,05127.6313,E,28.49,234.01,190923,,,D*42
$GNRMC,102819.000,A,3543.0978,N,05127.6148,E,30.41,235.11,190923,,,D*49
$GNRMC,102820.000,A,3543.0935,N,05127.6063,E,30.91,233.38,190923,,,D*42
$GNRMC,102821.000,A,3543.0889,N,05127.5992,E,31.91,232.82,190923,,,D*40
$GNRMC,102822.000,A,3543.0824,N,05127.5883,E,32.73,231.61,190923,,,D*44
$GNRMC,102823.000,A,3543.0757,N,05127.5801,E,33.83,231.55,190923,,,D*4D
$GNRMC,102824.000,A,3543.0700,N,05127.5709,E,35.58,232.18,190923,,,D*45
$GNRMC,102826.000,A,3543.0568,N,05127.5513,E,38.67,228.45,190923,,,D*40
$GNRMC,102827.000,A,3543.0491,N,05127.5430,E,39.18,226.64,190923,,,D*42
$GNRMC,102828.000,A,3543.0407,N,05127.5334,E,39.22,224.50,190923,,,D*4D
$GNRMC,102829.000,A,3543.0321,N,05127.5250,E,39.51,222.69,190923,,,D*44
$GNRMC,102830.000,A,3543.0238,N,05127.5158,E,39.19,221.88,190923,,,D*4E
$GNRMC,102831.000,A,3543.0158,N,05127.5074,E,38.81,220.39,190923,,,D*4E
$GNRMC,102832.000,A,3543.0074,N,05127.4991,E,38.81,219.63,190923,,,D*44
$GNRMC,102834.000,A,3542.9908,N,05127.4830,E,37.35,220.21,190923,,,D*4E
$GNRMC,102835.000,A,3542.9827,N,05127.4750,E,37.29,218.56,190923,,,D*4C
$GNRMC,102836.000,A,3542.9744,N,05127.4672,E,35.94,217.40,190923,,,D*48
$GNRMC,102837.000,A,3542.9662,N,05127.4597,E,35.02,216.72,190923,,,D*4B
$GNRMC,102838.000,A,3542.9574,N,05127.4536,E,35.17,215.53,190923,,,D*4F
$GNRMC,102839.000,A,3542.9497,N,05127.4458,E,36.53,213.90,190923,,,D*41
$GNRMC,102841.000,A,3542.9316,N,05127.4328,E,37.07,209.66,190923,,,D*42
$GNRMC,102842.000,A,3542.9230,N,05127.4265,E,36.64,212.53,190923,,,D*44
$GNRMC,102843.000,A,3542.9138,N,05127.4216,E,37.12,206.08,190923,,,D*41
$GNRMC,102844.000,A,3542.9047,N,05127.4168,E,35.37,203.90,190923,,,D*44
$GNRMC,102845.000,A,3542.8957,N,05127.4123,E,35.09,202.82,190923,,,D*4C
$GNRMC,102846.000,A,3542.8869,N,05127.4078,E,34.38,201.30,190923,,,D*45
$GNRMC,102848.000,A,3542.8689,N,05127.4006,E,33.87,195.59,190923,,,D*40
$GNRMC,102849.000,A,3542.8599,N,05127.3978,E,34.16,193.52,190923,,,D*46
$GNRMC,102850.000,A,3542.8505,N,05127.3954,E,34.57,192.36,190923,,,D*43
$GNRMC,102851.000,A,3542.8412,N,05127.3930,E,34.10,191.64,190923,,,D*40
$GNRMC,102852.000,A,3542.8319,N,05127.3910,E,33.92,189.60,190923,,,D*4D
$GNRMC,102853.000,A,3542.8226,N,05127.3892,E,33.97,187.53,190923,,,D*41
$GNRMC,102855.000,A,3542.8035,N,05127.3871,E,34.53,183.59,190923,,,D*4B
$GNRMC,102856.000,A,3542.7939,N,05127.3866,E,34.49,181.70,190923,,,D*46
$GNRMC,102857.000,A,3542.7842,N,05127.3865,E,34.56,179.43,190923,,,D*40
$GNRMC,102858.000,A,3542.7748,N,05127.3868,E,33.98,178.02,190923,,,D*46
$GNRMC,102859.000,A,3542.7653,N,05127.3872,E,34.18,176.57,190923,,,D*46
$GNRMC,102900.000,A,3542.7555,N,05127.3880,E,33.98,177.35,190923,,,D*49
$GNRMC,102901.000,A,3542.7459,N,05127.3891,E,33.50,175.56,190923,,,D*46
$GNRMC,102903.000,A,3542.7271,N,05127.3915,E,32.72,173.58,190923,,,D*4C
$GNRMC,102904.000,A,3542.7182,N,05127.3927,E,30.77,172.92,190923,,,D*45
$GNRMC,102905.000,A,3542.7099,N,05127.3938,E,29.32,173.59,190923,,,D*4E
$GNRMC,102906.000,A,3542.7019,N,05127.3952,E,29.30,171.66,190923,,,D*45
$GNRMC,102907.000,A,3542.6938,N,05127.3971,E,28.96,169.70,190923,,,D*4D
$GNRMC,102908.000,A,3542.6863,N,05127.3995,E,28.75,168.20,190923,,,D*4E
$GNRMC,102910.000,A,3542.6702,N,05127.4020,E,30.06,171.60,190923,,,D*4E
$GNRMC,102911.000,A,3542.6622,N,05127.4035,E,30.24,170.84,190923,,,D*43
$GNRMC,102912.000,A,3542.6539,N,05127.4050,E,31.53,172.41,190923,,,D*40
$GNRMC,102913.000,A,3542.6455,N,05127.4048,E,32.32,172.89,190923,,,D*43
$GNRMC,102914.000,A,3542.6364,N,05127.4061,E,33.03,173.61,190923,,,D*4E
$GNRMC,102915.000,A,3542.6273,N,05127.4073,E,32.68,173.72,190923,,,D*45
$GNRMC,102917.000,A,3542.6100,N,05127.4102,E,31.45,172.56,190923,,,D*4C
$GNRMC,102918.000,A,3542.6013,N,05127.4113,E,31.51,173.03,190923,,,D*44
$GNRMC,102919.000,A,3542.5923,N,05127.4125,E,31.45,174.55,190923,,,D*48
$GNRMC,102920.000,A,3542.5832,N,05127.4130,E,33.34,174.90,190923,,,D*4A
$GNRMC,102921.000,A,3542.5746,N,05127.4142,E,32.35,173.80,190923,,,D*44
$GNRMC,102922.000,A,3542.5652,N,05127.4151,E,32.76,174.40,190923,,,D*4D
$GNRMC,102923.000,A,3542.5564,N,05127.4166,E,32.72,174.72,190923,,,D*4B
$GNRMC,102925.000,A,3542.5385,N,05127.4186,E,31.33,175.30,190923,,,D*4B
$GNRMC,102926.000,A,3542.5299,N,05127.4194,E,30.62,175.95,190923,,,D*4D
$GNRMC,102927.000,A,3542.5216,N,05127.4202,E,29.60,175.40,190923,,,D*45
$GNRMC,102928.000,A,3542.5137,N,05127.4213,E,28.66,173.53,190923,,,D*49
$GNRMC,102929.000,A,3542.5062,N,05127.4227,E,28.09,174.82,190923,,,D*4C
$GNRMC,102930.000,A,3542.4985,N,05127.4237,E,27.54,173.48,190923,,,D*42
$GNRMC,102932.000,A,3542.4832,N,05127.4256,E,27.84,175.43,190923,,,D*4A
$GNRMC,102933.000,A,3542.4755,N,05127.4265,E,27.79,173.47,190923,,,D*45
$GNRMC,102934.000,A,3542.4677,N,05127.4276,E,28.60,173.81,190923,,,D*4C
$GNRMC,102935.000,A,3542.4598,N,05127.4288,E,28.23,172.54,190923,,,D*40
$GNRMC,102936.000,A,3542.4516,N,05127.4301,E,30.46,172.15,190923,,,D*4A
$GNRMC,102937.000,A,3542.4442,N,05127.4323,E,30.68,171.40,190923,,,D*44
$GNRMC,102939.000,A,3542.4279,N,05127.4354,E,29.98,170.67,190923,,,D*47
$GNRMC,102940.000,A,3542.4198,N,05127.4362,E,29.39,172.50,190923,,,D*4D
$GNRMC,102941.000,A,3542.4110,N,05127.4357,E,29.22,173.32,190923,,,D*45
$GNRMC,102942.000,A,3542.4025,N,05127.4369,E,29.55,173.65,190923,,,D*4E
$GNRMC,102943.000,A,3542.3930,N,05127.4372,E,30.64,173.40,190923,,,D*42
$GNRMC,102944.000,A,3542.3838,N,05127.4371,E,31.07,172.34,190923,,,D*49
$GNRMC,102945.000,A,3542.3754,N,05127.4382,E,31.66,172.41,190923,,,D*44
$GNRMC,102947.000,A,3542.3576,N,05127.4416,E,32.66,172.72,190923,,,D*4D
$GNRMC,102948.000,A,3542.3489,N,05127.4431,E,32.60,173.82,190923,,,D*4E
$GNRMC,102949.000,A,3542.3396,N,05127.4437,E,32.25,175.64,190923,,,D*4F
$GNRMC,102950.000,A,3542.3308,N,05127.4443,E,31.44,176.58,190923,,,D*4B
$GNRMC,102951.000,A,3542.3229,N,05127.4457,E,29.70,176.89,190923,,,D*4F
$GNRMC,102952.000,A,3542.3155,N,05127.4466,E,27.47,177.15,190923,,,D*48
$GNRMC,102954.000,A,3542.3029,N,05127.4483,E,19.24,182.15,190923,,,D*4D
$GNRMC,102955.000,A,3542.2984,N,05127.4472,E,16.61,192.64,190923,,,D*44
$GNRMC,102956.000,A,3542.2942,N,05127.4454,E,15.96,202.82,190923,,,D*40
$GNRMC,102957.000,A,3542.2903,N,05127.4428,E,16.22,212.07,190923,,,D*4F
$GNRMC,102958.000,A,3542.2869,N,05127.4396,E,15.59,220.47,190923,,,D*45
$GNRMC,102959.000,A,3542.2840,N,05127.4359,E,14.76,229.38,190923,,,D*41
$GNRMC,103001.000,A,3542.2791,N,05127.4275,E,15.59,238.36,190923,,,D*4A
$GNRMC,103002.000,A,3542.2770,N,05127.4222,E,17.18,244.79,190923,,,D*43
$GNRMC,103003.000,A,3542.2752,N,05127.4161,E,19.16,249.85,190923,,,D*48
$GNRMC,103004.000,A,3542.2735,N,05127.4098,E,18.66,250.60,190923,,,D*4C
$GNRMC,103005.000,A,3542.2719,N,05127.4038,E,18.14,249.37,190923,,,D*46
$GNRMC,103006.000,A,3542.2702,N,05127.3976,E,19.59,249.74,190923,,,D*44
$GNRMC,103008.000,A,3542.2675,N,05127.3825,E,24.15,249.60,190923,,,D*4F
$GNRMC,103009.000,A,3542.2651,N,05127.3743,E,25.71,250.26,190923,,,D*4E
$GNRMC,103010.000,A,3542.2624,N,05127.3660,E,27.59,251.05,190923,,,D*4C
$GNRMC,103011.000,A,3542.2596,N,05127.3575,E,29.53,252.42,190923,,,D*44
$GNRMC,103012.000,A,3542.2568,N,05127.3476,E,30.35,251.63,190923,,,D*4C
$GNRMC,103013.000,A,3542.2539,N,05127.3385,E,29.83,252.09,190923,,,D*48
$GNRMC,103014.000,A,3542.2513,N,05127.3287,E,28.95,252.17,190923,,,D*4D
$GNRMC,103016.000,A,3542.2455,N,05127.3106,E,27.49,251.99,190923,,,D*4D
$GNRMC,103017.000,A,3542.2436,N,05127.3011,E,27.16,251.75,190923,,,D*46
$GNRMC,103018.000,A,3542.2411,N,05127.2925,E,27.59,252.74,190923,,,D*4A
$GNRMC,103019.000,A,3542.2388,N,05127.2835,E,27.81,252.06,190923,,,D*4C
$GNRMC,103020.000,A,3542.2362,N,05127.2745,E,27.86,251.74,190923,,,D*4B
$GNRMC,103021.000,A,3542.2333,N,05127.2660,E,27.49,251.82,190923,,,D*42
$GNRMC,103023.000,A,3542.2285,N,05127.2488,E,26.56,250.79,190923,,,D*42
$GNRMC,103024.000,A,3542.2256,N,05127.2404,E,26.63,251.50,190923,,,D*43
$GNRMC,103025.000,A,3542.2231,N,05127.2323,E,25.99,251.24,190923,,,D*44
$GNRMC,103026.000,A,3542.2208,N,05127.2238,E,26.00,251.80,190923,,,D*4B
$GNRMC,103027.000,A,3542.2179,N,05127.2155,E,25.56,251.58,190923,,,D*42
$GNRMC,103028.000,A,3542.2156,N,05127.2064,E,25.99,251.87,190923,,,D*42
$GNRMC,103030.000,A,3542.2112,N,05127.1892,E,25.79,253.24,190923,,,D*4C
$GNRMC,103031.000,A,3542.2088,N,05127.1811,E,25.50,251.13,190923,,,D*49
$GNRMC,103032.000,A,3542.2067,N,05127.1731,E,25.06,251.95,190923,,,D*4B
$GNRMC,103033.000,A,3542.2055,N,05127.1650,E,23.23,252.26,190923,,,D*47
$GNRMC,103034.000,A,3542.2031,N,05127.1573,E,23.26,253.30,190923,,,D*43
$GNRMC,103035.000,A,3542.2012,N,05127.1500,E,23.26,252.67,190923,,,D*44
$GNRMC,103037.000,A,3542.1970,N,05127.1356,E,22.70,252.08,190923,,,D*46
$GNRMC,103038.000,A,3542.1949,N,05127.1289,E,22.10,250.93,190923,,,D*46
$GNRMC,103039.000,A,3542.1925,N,05127.1215,E,22.15,250.10,190923,,,D*46
$GNRMC,103040.000,A,3542.1903,N,05127.1143,E,22.32,250.72,190923,,,D*4D
$GNRMC,103041.000,A,3542.1880,N,05127.1078,E,22.37,252.71,190923,,,D*4B
$GNRMC,103042.000,A,3542.1860,N,05127.1007,E,19.50,252.48,190923,,,D*4D
$GNRMC,103043.000,A,3542.1847,N,05127.0957,E,15.58,250.22,190923,,,D*4E
$GNRMC,103045.000,A,3542.1823,N,05127.0881,E,9.68,252.68,190923,,,D*72
$GNRMC,103046.000,A,3542.1814,N,05127.0852,E,8.32,252.12,190923,,,D*78
$GNRMC,103047.000,A,3542.1806,N,05127.0826,E,7.97,251.48,190923,,,D*75
$GNRMC,103048.000,A,3542.1798,N,05127.0796,E,10.00,250.51,190923,,,D*47
$GNRMC,103049.000,A,3542.1787,N,05127.0760,E,12.41,248.90,190923,,,D*42
$GNRMC,103050.000,A,3542.1773,N,05127.0716,E,15.25,249.44,190923,,,D*4D
$GNRMC,103052.000,A,3542.1741,N,05127.0603,E,19.48,250.14,190923,,,D*41
$GNRMC,103053.000,A,3542.1720,N,05127.0546,E,19.02,250.47,190923,,,D*4D
$GNRMC,103054.000,A,3542.1702,N,05127.0483,E,18.79,250.88,190923,,,D*4C
$GNRMC,103055.000,A,3542.1685,N,05127.0421,E,17.80,250.12,190923,,,D*41
$GNRMC,103056.000,A,3542.1669,N,05127.0364,E,16.36,249.74,190923,,,D*42
$GNRMC,103057.000,A,3542.1654,N,05127.0314,E,15.18,249.80,190923,,,D*4E
$GNRMC,103059.000,A,3542.1625,N,05127.0220,E,14.83,249.31,190923,,,D*49
$GNRMC,103100.000,A,3542.1609,N,05127.0173,E,14.26,249.26,190923,,,D*46
$GNRMC,103101.000,A,3542.1594,N,05127.0128,E,13.74,249.37,190923,,,D*4E
$GNRMC,103102.000,A,3542.1579,N,05127.0081,E,15.34,249.15,190923,,,D*4E
$GNRMC,103103.000,A,3542.1562,N,05127.0028,E,17.41,250.08,190923,,,D*42
$GNRMC,103104.000,A,3542.1545,N,05126.9970,E,18.30,251.11,190923,,,D*4C
$GNRMC,103106.000,A,3542.1506,N,05126.9842,E,20.70,250.29,190923,,,D*4C
$GNRMC,103107.000,A,3542.1489,N,05126.9771,E,21.29,250.92,190923,,,D*49
$GNRMC,103108.000,A,3542.1468,N,05126.9696,E,21.96,250.10,190923,,,D*4F
$GNRMC,103109.000,A,3542.1447,N,05126.9622,E,21.66,249.46,190923,,,D*48
$GNRMC,103110.000,A,3542.1426,N,05126.9557,E,21.04,249.29,190923,,,D*4B
$GNRMC,103111.000,A,3542.1405,N,05126.9489,E,20.41,249.68,190923,,,D*4C
$GNRMC,103112.000,A,3542.1393,N,05126.9421,E,22.27,247.42,190923,,,D*41
$GNRMC,103114.000,A,3542.1359,N,05126.9274,E,22.30,247.83,190923,,,D*4C
$GNRMC,103115.000,A,3542.1331,N,05126.9222,E,21.11,241.04,190923,,,D*49
$GNRMC,103116.000,A,3542.1307,N,05126.9146,E,22.39,243.95,190923,,,D*4D
$GNRMC,103117.000,A,3542.1278,N,05126.9075,E,22.63,243.87,190923,,,D*48
$GNRMC,103118.000,V,,,,,22.70,243.98,190923,,,E*61
$GNRMC,103120.000,V,,,,,0.00,243.98,190923,,,N*56
$GNRMC,103121.000,V,,,,,0.00,243.98,190923,,,N*57
$GNRMC,103122.000,V,,,,,0.00,243.98,190923,,,N*54
$GNRMC,103123.000,V,,,,,0.00,243.98,190923,,,N*55
$GNRMC,103124.000,V,,,,,0.00,243.98,190923,,,N*52
$GNRMC,103125.000,V,,,,,22.36,282.03,190923,,,N*69
$GNRMC,103126.000,A,3542.1197,N,05126.8115,E,21.74,273.36,190923,,,D*42
$GNRMC,103128.000,A,3542.1221,N,05126.7999,E,17.94,268.58,190923,,,D*48
$GNRMC,103129.000,A,3542.1224,N,05126.7953,E,16.65,267.46,190923,,,D*45
$GNRMC,103130.000,A,3542.1236,N,05126.7909,E,16.26,268.10,190923,,,D*4A
$GNRMC,103131.000,A,3542.1223,N,05126.7864,E,15.39,268.78,190923,,,D*46
$GNRMC,103132.000,A,3542.1223,N,05126.7816,E,14.05,271.41,190923,,,D*4C
$GNRMC,103133.000,A,3542.1223,N,05126.7772,E,13.17,269.66,190923,,,D*48
$GNRMC,103135.000,A,3542.1218,N,05126.7685,E,13.27,263.62,190923,,,D*42
$GNRMC,103136.000,A,3542.1218,N,05126.7643,E,11.41,266.79,190923,,,D*46
$GNRMC,103137.000,A,3542.1217,N,05126.7607,E,10.52,267.33,190923,,,D*44
$GNRMC,103138.000,A,3542.1216,N,05126.7567,E,11.69,269.56,190923,,,D*4B
$GNRMC,103139.000,A,3542.1214,N,05126.7521,E,14.71,268.28,190923,,,D*4E
$GNRMC,103140.000,A,3542.1212,N,05126.7461,E,18.27,268.14,190923,,,D*43
$GNRMC,103142.000,A,3542.1209,N,05126.7313,E,21.90,269.18,190923,,,D*42
$GNRMC,103143.000,A,3542.1210,N,05126.7238,E,20.88,270.45,190923,,,D*4B
$GNRMC,103144.000,A,3542.1211,N,05126.7167,E,19.43,270.40,190923,,,D*4C
$GNRMC,103145.000,A,3542.1212,N,05126.7103,E,17.71,270.04,190923,,,D*43
$GNRMC,103146.000,A,3542.1212,N,05126.7043,E,17.24,269.76,190923,,,D*48
$GNRMC,103147.000,A,3542.1210,N,05126.6982,E,18.25,267.19,190923,,,D*47
$GNRMC,103149.000,A,3542.1206,N,05126.6852,E,19.27,268.22,190923,,,D*46
$GNRMC,103150.000,A,3542.1203,N,05126.6784,E,20.22,268.24,190923,,,D*46
$GNRMC,103151.000,A,3542.1202,N,05126.6714,E,20.55,268.95,190923,,,D*45
$GNRMC,103152.000,A,3542.1200,N,05126.6643,E,20.52,268.26,190923,,,D*48
$GNRMC,103153.000,A,3542.1197,N,05126.6572,E,20.16,268.78,190923,,,D*4E
$GNRMC,103154.000,A,3542.1195,N,05126.6502,E,20.54,269.31,190923,,,D*46
$GNRMC,103155.000,A,3542.1194,N,05126.6430,E,21.39,269.28,190923,,,D*44
$GNRMC,103157.000,A,3542.1191,N,05126.6271,E,22.01,269.80,190923,,,D*4A
$GNRMC,103158.000,A,3542.1184,N,05126.6197,E,22.00,268.47,190923,,,D*41
$GNRMC,103159.000,A,3542.1187,N,05126.6122,E,22.18,268.18,190923,,,D*4E
$GNRMC,103200.000,A,3542.1197,N,05126.6049,E,22.63,268.50,190923,,,D*4C
$GNRMC,103201.000,A,3542.1181,N,05126.5970,E,22.46,270.06,190923,,,D*47
$GNRMC,103202.000,A,3542.1177,N,05126.5897,E,22.44,268.89,190923,,,D*49
$GNRMC,103204.000,A,3542.1170,N,05126.5740,E,23.02,268.67,190923,,,D*4E
$GNRMC,103205.000,A,3542.1186,N,05126.5668,E,23.07,269.08,190923,,,D*40
$GNRMC,103206.000,A,3542.1188,N,05126.5590,E,22.99,268.01,190923,,,D*47
$GNRMC,103207.000,A,3542.1196,N,05126.5514,E,22.39,268.58,190923,,,D*43
$GNRMC,103208.000,A,3542.1186,N,05126.5426,E,21.87,268.37,190923,,,D*42
$GNRMC,103209.000,A,3542.1178,N,05126.5355,E,21.30,268.53,190923,,,D*4F
$GNRMC,103210.000,A,3542.1174,N,05126.5276,E,21.26,268.76,190923,,,D*4B
$GNRMC,103212.000,A,3542.1168,N,05126.5130,E,20.57,268.64,190923,,,D*41
$GNRMC,103213.000,A,3542.1168,N,05126.5054,E,20.52,269.13,190923,,,D*47
$GNRMC,103214.000,A,3542.1170,N,05126.4981,E,20.55,269.01,190923,,,D*4D
$GNRMC,103215.000,A,3542.1167,N,05126.4919,E,20.71,269.23,190923,,,D*4D
$GNRMC,103216.000,A,3542.1164,N,05126.4847,E,21.34,268.78,190923,,,D*48
$GNRMC,103217.000,A,3542.1166,N,05126.4782,E,21.58,268.49,190923,,,D*45
$GNRMC,103219.000,A,3542.1161,N,05126.4632,E,21.84,269.83,190923,,,D*40
$GNRMC,103220.000,A,3542.1159,N,05126.4558,E,21.90,269.55,190923,,,D*40
$GNRMC,103221.000,A,3542.1168,N,05126.4494,E,21.47,269.26,190923,,,D*4C
$GNRMC,103222.000,A,3542.1174,N,05126.4422,E,21.31,268.47,190923,,,D*48
$GNRMC,103223.000,A,3542.1170,N,05126.4353,E,20.94,269.46,190923,,,D*42
$GNRMC,103224.000,A,3542.1184,N,05126.4269,E,20.89,269.93,190923,,,D*42
$GNRMC,103226.000,A,3542.1172,N,05126.4134,E,17.39,268.94,190923,,,D*4B
$GNRMC,103227.000,A,3542.1169,N,05126.4078,E,15.38,269.53,190923,,,D*40
$GNRMC,103228.000,A,3542.1166,N,05126.4031,E,13.01,267.77,190923,,,D*49
$GNRMC,103229.000,A,3542.1163,N,05126.3992,E,11.35,267.68,190923,,,D*41
$GNRMC,103230.000,A,3542.1161,N,05126.3955,E,10.79,267.89,190923,,,D*46
$GNRMC,103231.000,A,3542.1159,N,05126.3919,E,10.47,268.83,190923,,,D*4C
$GNRMC,103233.000,A,3542.1157,N,05126.3849,E,11.50,270.14,190923,,,D*44
$GNRMC,103234.000,A,3542.1157,N,05126.3807,E,13.24,269.36,190923,,,D*40
$GNRMC,103235.000,A,3542.1155,N,05126.3761,E,14.23,268.51,190923,,,D*4C
$GNRMC,103236.000,A,3542.1154,N,05126.3712,E,14.30,268.24,190923,,,D*4A
$GNRMC,103237.000,A,3542.1153,N,05126.3664,E,13.84,267.97,190923,,,D*43
$GNRMC,103238.000,A,3542.1153,N,05126.3617,E,13.81,268.86,190923,,,D*42
$GNRMC,103239.000,A,3542.1152,N,05126.3571,E,13.21,269.27,190923,,,D*41
$GNRMC,103241.000,A,3542.1152,N,05126.3485,E,12.42,268.50,190923,,,D*41
$GNRMC,103242.000,A,3542.1151,N,05126.3442,E,12.40,269.87,190923,,,D*43
$GNRMC,103243.000,A,3542.1150,N,05126.3400,E,12.46,269.72,190923,,,D*49
$GNRMC,103244.000,A,3542.1149,N,05126.3357,E,13.12,269.35,190923,,,D*40
$GNRMC,103245.000,A,3542.1149,N,05126.3311,E,13.94,269.39,190923,,,D*41
$GNRMC,103246.000,A,3542.1149,N,05126.3262,E,14.84,269.66,190923,,,D*4B
$GNRMC,103248.000,A,3542.1146,N,05126.3164,E,15.34,269.34,190923,,,D*42
$GNRMC,103249.000,A,3542.1144,N,05126.3113,E,16.04,270.55,190923,,,D*4E
$GNRMC,103250.000,A,3542.1144,N,05126.3056,E,17.54,271.87,190923,,,D*4C
$GNRMC,103251.000,A,3542.1145,N,05126.2999,E,17.71,271.56,190923,,,D*4C
$GNRMC,103252.000,A,3542.1149,N,05126.2939,E,18.53,273.39,190923,,,D*4D
$GNRMC,103253.000,A,3542.1151,N,05126.2876,E,18.80,271.45,190923,,,D*48
$GNRMC,103254.000,A,3542.1152,N,05126.2812,E,18.46,269.95,190923,,,D*40
$GNRMC,103256.000,A,3542.1160,N,05126.2692,E,17.07,270.77,190923,,,D*4B
$GNRMC,103257.000,A,3542.1161,N,05126.2633,E,16.58,270.64,190923,,,D*49
$GNRMC,103258.000,A,3542.1161,N,05126.2574,E,17.69,269.48,190923,,,D*43
$GNRMC,103259.000,A,3542.1160,N,05126.2510,E,19.99,268.90,190923,,,D*44
$GNRMC,103300.000,A,3542.1158,N,05126.2440,E,20.91,268.25,190923,,,D*4A
$GNRMC,103301.000,A,3542.1157,N,05126.2371,E,21.37,266.40,190923,,,D*41
$GNRMC,103303.000,A,3542.1143,N,05126.2217,E,24.51,263.56,190923,,,D*40
$GNRMC,103304.000,A,3542.1140,N,05126.2132,E,25.81,264.21,190923,,,D*4B
$GNRMC,103305.000,A,3542.1134,N,05126.2042,E,26.75,266.31,190923,,,D*44
$GNRMC,103306.000,A,3542.1128,N,05126.1940,E,26.78,268.18,190923,,,D*4A
$GNRMC,103307.000,A,3542.1130,N,05126.1855,E,26.84,268.81,190923,,,D*44
$GNRMC,103308.000,A,3542.1126,N,05126.1758,E,26.88,268.55,190923,,,D*4B
$GNRMC,103309.000,A,3542.1124,N,05126.1666,E,27.08,268.80,190923,,,D*45
$GNRMC,103311.000,A,3542.1146,N,05126.1466,E,28.21,268.99,190923,,,D*46
$GNRMC,103312.000,A,3542.1139,N,05126.1397,E,29.23,268.82,190923,,,D*4D
$GNRMC,103313.000,A,3542.1148,N,05126.1281,E,30.04,268.99,190923,,,D*4B
$GNRMC,103314.000,A,3542.1144,N,05126.1185,E,31.08,268.42,190923,,,D*4C
$GNRMC,103315.000,A,3542.1139,N,05126.1066,E,31.95,269.10,190923,,,D*49
$GNRMC,103316.000,A,3542.1125,N,05126.0952,E,32.42,268.92,190923,,,D*4A
$GNRMC,103318.000,A,3542.1124,N,05126.0729,E,32.80,268.95,190923,,,D*4E
$GNRMC,103319.000,A,3542.1120,N,05126.0612,E,32.62,269.00,190923,,,D*43
$GNRMC,103320.000,A,3542.1114,N,05126.0498,E,32.57,268.71,190923,,,D*4F
$GNRMC,103321.000,A,3542.1107,N,05126.0385,E,33.36,268.49,190923,,,D*4A
$GNRMC,103322.000,A,3542.1103,N,05126.0269,E,34.12,268.91,190923,,,D*4A
$GNRMC,103323.000,A,3542.1103,N,05126.0149,E,34.98,269.28,190923,,,D*4B
$GNRMC,103325.000,A,3542.1099,N,05125.9916,E,35.70,269.72,190923,,,D*4F
$GNRMC,103326.000,A,3542.1103,N,05125.9787,E,35.52,269.69,190923,,,D*42
$GNRMC,103327.000,A,3542.1101,N,05125.9665,E,35.29,270.18,190923,,,D*4E
$GNRMC,103328.000,A,3542.1100,N,05125.9541,E,34.78,270.67,190923,,,D*48
$GNRMC,103329.000,A,3542.1102,N,05125.9426,E,35.09,271.05,190923,,,D*49
$GNRMC,103330.000,A,3542.1104,N,05125.9311,E,32.72,270.99,190923,,,D*4B
$GNRMC,103331.000,A,3542.1105,N,05125.9211,E,31.60,270.48,190923,,,D*46
$GNRMC,103333.000,A,3542.1107,N,05125.9004,E,29.77,269.43,190923,,,D*4C
$GNRMC,103334.000,A,3542.1105,N,05125.8904,E,29.09,269.37,190923,,,D*4B
$GNRMC,103335.000,A,3542.1104,N,05125.8800,E,28.82,270.20,190923,,,D*42
$GNRMC,103336.000,A,3542.1098,N,05125.8692,E,28.86,271.17,190923,,,D*41
$GNRMC,103337.000,A,3542.1098,N,05125.8594,E,29.19,271.80,190923,,,D*4C
$GNRMC,103338.000,A,3542.1107,N,05125.8503,E,28.92,271.61,190923,,,D*47
$GNRMC,103340.000,A,3542.1105,N,05125.8305,E,28.52,270.22,190923,,,D*40
$GNRMC,103341.000,A,3542.1105,N,05125.8213,E,28.47,269.31,190923,,,D*49
$GNRMC,103342.000,A,3542.1106,N,05125.8125,E,28.46,268.97,190923,,,D*43
$GNRMC,103343.000,A,3542.1109,N,05125.8022,E,28.82,268.32,190923,,,D*4C
$GNRMC,103344.000,A,3542.1110,N,05125.7915,E,29.04,268.49,190923,,,D*42
$GNRMC,103345.000,A,3542.1104,N,05125.7815,E,29.08,269.05,190923,,,D*42
$GNRMC,103346.000,A,3542.1106,N,05125.7726,E,29.38,268.39,190923,,,D*41
$GNRMC,103348.000,A,3542.1108,N,05125.7520,E,28.96,267.85,190923,,,D*48
$GNRMC,103349.000,A,3542.1103,N,05125.7434,E,27.85,267.82,190923,,,D*4C
$GNRMC,103350.000,A,3542.1097,N,05125.7344,E,26.54,267.36,190923,,,D*4A
$GNRMC,103351.000,A,3542.1091,N,05125.7239,E,24.75,267.54,190923,,,D*43
$GNRMC,103352.000,A,3542.1094,N,05125.7161,E,22.84,267.27,190923,,,D*47
$GNRMC,103353.000,A,3542.1090,N,05125.7090,E,19.14,268.48,190923,,,D*4A
$GNRMC,103355.000,A,3542.1087,N,05125.6965,E,17.55,267.98,190923,,,D*41
$GNRMC,103356.000,A,3542.1084,N,05125.6907,E,16.47,268.34,190923,,,D*4E
$GNRMC,103357.000,A,3542.1082,N,05125.6854,E,14.84,267.63,190923,,,D*4E
$GNRMC,103358.000,A,3542.1080,N,05125.6805,E,13.27,268.86,190923,,,D*4D
$GNRMC,103359.000,A,3542.1078,N,05125.6760,E,12.39,269.05,190923,,,D*43
$GNRMC,103400.000,A,3542.1078,N,05125.6719,E,10.88,268.61,190923,,,D*4D
$GNRMC,103401.000,A,3542.1076,N,05125.6686,E,8.22,268.32,190923,,,D*7A
$GNRMC,103403.000,A,3542.1072,N,05125.6645,E,4.13,269.87,190923,,,D*72
$GNRMC,103404.000,A,3542.1071,N,05125.6635,E,0.14,269.87,190923,,,D*72
$GNRMC,103405.000,A,3542.1071,N,05125.6634,E,0.03,269.87,190923,,,D*74
$GNRMC,103406.000,A,3542.1070,N,05125.6634,E,0.01,269.87,190923,,,D*74
$GNRMC,103407.000,A,3542.1071,N,05125.6634,E,0.01,269.87,190923,,,D*74
$GNRMC,103408.000,A,3542.1071,N,05125.6634,E,0.00,269.87,190923,,,D*7A
$GNRMC,103410.000,A,3542.1071,N,05125.6633,E,0.01,269.87,190923,,,D*75
$GNRMC,103411.000,A,3542.1071,N,05125.6633,E,0.03,269.87,190923,,,D*76
$GNRMC,103412.000,A,3542.1071,N,05125.6631,E,0.05,269.87,190923,,,D*71
$GNRMC,103413.000,A,3542.1070,N,05125.6629,E,0.07,269.87,190923,,,D*7A
$GNRMC,103414.000,A,3542.1070,N,05125.6626,E,0.08,269.87,190923,,,D*7D
$GNRMC,103415.000,A,3542.1070,N,05125.6624,E,0.07,269.87,190923,,,D*71
$GNRMC,103416.000,A,3542.1070,N,05125.6620,E,1.11,269.87,190923,,,D*70
$GNRMC,103418.000,A,3542.1071,N,05125.6606,E,2.63,269.87,190923,,,D*7D
$GNRMC,103419.000,A,3542.1070,N,05125.6596,E,3.62,269.79,190923,,,D*76
$GNRMC,103420.000,A,3542.1070,N,05125.6584,E,3.88,270.22,190923,,,D*7D
$GNRMC,103421.000,A,3542.1071,N,05125.6573,E,3.55,270.77,190923,,,D*75
$GNRMC,103422.000,A,3542.1071,N,05125.6562,E,3.61,268.22,190923,,,D*78
$GNRMC,103423.000,A,3542.1074,N,05125.6550,E,4.01,269.66,190923,,,D*7D
$GNRMC,103425.000,A,3542.1075,N,05125.6527,E,2.59,263.01,190923,,,D*7A
$GNRMC,103426.000,A,3542.1074,N,05125.6520,E,1.63,272.30,190923,,,D*77
$GNRMC,103427.000,A,3542.1074,N,05125.6513,E,2.29,273.99,190923,,,D*79
$GNRMC,103428.000,A,3542.1071,N,05125.6503,E,2.97,264.95,190923,,,D*7D
$GNRMC,103429.000,A,3542.1068,N,05125.6490,E,3.73,269.16,190923,,,D*72
$GNRMC,103430.000,A,3542.1066,N,05125.6475,E,4.44,266.87,190923,,,D*7B
$GNRMC,103431.000,A,3542.1065,N,05125.6459,E,5.01,268.85,190923,,,D*7B
$GNRMC,103433.000,A,3542.1063,N,05125.6425,E,5.00,266.72,190923,,,D*73
$GNRMC,103434.000,A,3542.1062,N,05125.6408,E,5.00,268.62,190923,,,D*75
$GNRMC,103435.000,A,3542.1060,N,05125.6392,E,4.52,267.81,190923,,,D*76
$GNRMC,103436.000,A,3542.1059,N,05125.6377,E,3.80,265.47,190923,,,D*74
$GNRMC,103437.000,A,3542.1059,N,05125.6366,E,3.04,266.95,190923,,,D*75
$GNRMC,103438.000,A,3542.1058,N,05125.6359,E,1.57,272.20,190923,,,D*78
$GNRMC,103440.000,A,3542.1058,N,05125.6353,E,0.61,268.47,190923,,,D*73
$GNRMC,103441.000,A,3542.1058,N,05125.6350,E,0.95,277.18,190923,,,D*7E
$GNRMC,103442.000,A,3542.1058,N,05125.6346,E,1.15,273.02,190923,,,D*7C
$GNRMC,103443.000,A,3542.1058,N,05125.6341,E,1.23,265.87,190923,,,D*75
$GNRMC,103444.000,A,3542.1058,N,05125.6336,E,1.62,267.44,190923,,,D*7A
$GNRMC,103445.000,A,3542.1057,N,05125.6329,E,2.06,270.17,190923,,,D*7B
$GNRMC,103446.000,A,3542.1057,N,05125.6322,E,2.61,272.98,190923,,,D*77
$GNRMC,103448.000,A,3542.1057,N,05125.6296,E,4.75,268.49,190923,,,D*73
$GNRMC,103449.000,A,3542.1056,N,05125.6281,E,4.05,270.30,190923,,,D*75
$GNRMC,103450.000,A,3542.1055,N,05125.6268,E,3.62,267.02,190923,,,D*78
$GNRMC,103451.000,A,3542.1055,N,05125.6257,E,3.25,272.09,190923,,,D*79
$GNRMC,103452.000,A,3542.1053,N,05125.6246,E,3.18,271.48,190923,,,D*74
$GNRMC,103453.000,A,3542.1053,N,05125.6236,E,2.09,271.89,190923,,,D*7E
$GNRMC,103455.000,A,3542.1052,N,05125.6226,E,1.39,265.80,190923,,,D*74
$GNRMC,103456.000,A,3542.1051,N,05125.6221,E,1.36,264.94,190923,,,D*78
$GNRMC,103457.000,A,3542.1051,N,05125.6214,E,1.93,266.22,190923,,,D*7F
$GNRMC,103458.000,A,3542.1050,N,05125.6202,E,3.81,266.42,190923,,,D*71
$GNRMC,103459.000,A,3542.1049,N,05125.6187,E,5.90,263.97,190923,,,D*7D
$GNRMC,103500.000,A,3542.1046,N,05125.6170,E,4.36,266.44,190923,,,D*71
$GNRMC,103501.000,A,3542.1043,N,05125.6155,E,3.86,266.86,190923,,,D*70
$GNRMC,103503.000,A,3542.1040,N,05125.6132,E,3.02,266.58,190923,,,D*7F
$GNRMC,103504.000,A,3542.1040,N,05125.6123,E,2.31,266.76,190923,,,D*75
$GNRMC,103505.000,A,3542.1040,N,05125.6114,E,2.61,265.85,190923,,,D*7A
$GNRMC,103506.000,A,3542.1040,N,05125.6101,E,4.40,266.79,190923,,,D*78
$GNRMC,103507.000,A,3542.1040,N,05125.6084,E,5.64,268.49,190923,,,D*7F
$GNRMC,103508.000,A,3542.1040,N,05125.6058,E,8.05,267.79,190923,,,D*77
$GNRMC,103510.000,A,3542.1039,N,05125.6003,E,7.40,268.35,190923,,,D*77
$GNRMC,103511.000,A,3542.1038,N,05125.5980,E,5.83,266.49,190923,,,D*7E
$GNRMC,103512.000,A,3542.1037,N,05125.5963,E,4.35,266.24,190923,,,D*78
$GNRMC,103513.000,A,3542.1038,N,05125.5950,E,4.13,266.69,190923,,,D*7B
$GNRMC,103514.000,A,3542.1039,N,05125.5937,E,3.82,270.09,190923,,,D*72
$GNRMC,103515.000,A,3542.1040,N,05125.5925,E,3.50,266.74,190923,,,D*7C
$GNRMC,103516.000,A,3542.1041,N,05125.5913,E,3.56,267.93,190923,,,D*75
$GNRMC,103518.000,A,3542.1043,N,05125.5885,E,4.97,270.11,190923,,,D*71
$GNRMC,103519.000,A,3542.1043,N,05125.5867,E,5.55,270.55,190923,,,D*73
$GNRMC,103520.000,A,3542.1043,N,05125.5845,E,6.90,268.40,190923,,,D*7E
$GNRMC,103521.000,A,3542.1042,N,05125.5820,E,7.54,268.32,190923,,,D*71
$GNRMC,103522.000,A,3542.1042,N,05125.5793,E,8.55,267.63,190923,,,D*70
$GNRMC,103523.000,A,3542.1041,N,05125.5763,E,9.11,267.73,190923,,,D*7D
$GNRMC,103524.000,A,3542.1040,N,05125.5731,E,9.12,268.44,190923,,,D*74
$GNRMC,103526.000,A,3542.1037,N,05125.5663,E,11.06,268.05,190923,,,D*49
$GNRMC,103527.000,A,3542.1036,N,05125.5624,E,11.14,268.20,190923,,,D*4E
$GNRMC,103528.000,A,3542.1035,N,05125.5585,E,11.13,268.48,190923,,,D*43
$GNRMC,103529.000,A,3542.1034,N,05125.5547,E,11.17,269.87,190923,,,D*4B
$GNRMC,103530.000,A,3542.1033,N,05125.5506,E,12.72,270.67,190923,,,D*47
$GNRMC,103531.000,A,3542.1033,N,05125.5461,E,14.37,268.85,190923,,,D*44
$GNRMC,103533.000,A,3542.1031,N,05125.5352,E,16.55,270.13,190923,,,D*43
$GNRMC,103534.000,A,3542.1030,N,05125.5294,E,16.35,269.43,190923,,,D*45
$GNRMC,103535.000,A,3542.1030,N,05125.5239,E,15.35,269.35,190923,,,D*41
$GNRMC,103536.000,A,3542.1029,N,05125.5187,E,13.73,269.91,190923,,,D*46
$GNRMC,103537.000,A,3542.1028,N,05125.5143,E,12.04,268.44,190923,,,D*46
$GNRMC,103538.000,A,3542.1026,N,05125.5108,E,9.11,267.38,190923,,,D*72
$GNRMC,103539.000,A,3542.1024,N,05125.5083,E,6.18,268.43,190923,,,D*76
$GNRMC,103541.000,A,3542.1022,N,05125.5046,E,3.41,266.13,190923,,,D*74
$GNRMC,103542.000,A,3542.1022,N,05125.5038,E,0.17,266.13,190923,,,D*7E
$GNRMC,103543.000,A,3542.1022,N,05125.5034,E,0.08,266.13,190923,,,D*7D
$GNRMC,103544.000,A,3542.1022,N,05125.5031,E,0.07,266.13,190923,,,D*70
$GNRMC,103545.000,A,3542.1022,N,05125.5031,E,0.03,266.13,190923,,,D*75
$GNRMC,103546.000,A,3542.1022,N,05125.5030,E,0.01,266.13,190923,,,D*75
$GNRMC,103548.000,A,3542.1022,N,05125.5030,E,0.00,266.13,190923,,,D*7A
$GNRMC,103549.000,A,3542.1022,N,05125.5030,E,0.00,266.13,190923,,,D*7B
$GNRMC,103550.000,A,3542.1022,N,05125.5030,E,0.01,266.13,190923,,,D*72
$GNRMC,103551.000,A,3542.1022,N,05125.5030,E,0.00,266.13,190923,,,D*72
$GNRMC,103552.000,A,3542.1022,N,05125.5030,E,0.00,266.13,190923,,,D*71
$GNRMC,103553.000,A,3542.1022,N,05125.5030,E,0.00,266.13,190923,,,D*70
$GNRMC,103554.000,A,3542.1022,N,05125.5030,E,0.00,266.13,190923,,,D*77
$GNRMC,103556.000,A,3542.1022,N,05125.5030,E,0.02,266.13,190923,,,D*77
$GNRMC,103557.000,A,3542.1022,N,05125.5031,E,0.01,266.13,190923,,,D*74
$GNRMC,103558.000,A,3542.1022,N,05125.5030,E,0.01,266.13,190923,,,D*7A
$GNRMC,103559.000,A,3542.1022,N,05125.5030,E,0.01,266.13,190923,,,D*7B
$GNRMC,103600.000,A,3542.1022,N,05125.5030,E,0.00,266.13,190923,,,D*75
$GNRMC,103601.000,A,3542.1022,N,05125.5030,E,0.01,266.13,190923,,,D*75
$GNRMC,103602.000,A,3542.1022,N,05125.5030,E,0.01,266.13,190923,,,D*76
$GNRMC,103604.000,A,3542.1022,N,05125.5020,E,3.07,274.23,190923,,,D*74
$GNRMC,103605.000,A,3542.1023,N,05125.5005,E,5.35,272.52,190923,,,D*74
$GNRMC,103606.000,A,3542.1023,N,05125.4986,E,6.35,271.12,190923,,,D*70
$GNRMC,103607.000,A,3542.1023,N,05125.4964,E,6.71,269.38,190923,,,D*7C
$GNRMC,103608.000,A,3542.1022,N,05125.4941,E,6.71,267.29,190923,,,D*7B
$GNRMC,103609.000,A,3542.1023,N,05125.4918,E,7.31,269.71,190923,,,D*71
$GNRMC,103611.000,A,3542.1022,N,05125.4866,E,7.78,267.26,190923,,,D*70
$GNRMC,103612.000,A,3542.1023,N,05125.4841,E,6.81,268.36,190923,,,D*7E
$GNRMC,103613.000,A,3542.1024,N,05125.4818,E,6.16,269.49,190923,,,D*73
$GNRMC,103614.000,A,3542.1025,N,05125.4797,E,5.81,270.73,190923,,,D*71
$GNRMC,103615.000,A,3542.1025,N,05125.4777,E,5.77,273.69,190923,,,D*7F
$GNRMC,103616.000,A,3542.1026,N,05125.4756,E,5.82,268.85,190923,,,D*7E
$GNRMC,103618.000,A,3542.1027,N,05125.4716,E,6.62,266.65,190923,,,D*78
$GNRMC,103619.000,A,3542.1026,N,05125.4693,E,7.20,270.21,190923,,,D*74
$GNRMC,103620.000,A,3542.1026,N,05125.4667,E,8.22,268.13,190923,,,D*70
$GNRMC,103621.000,A,3542.1025,N,05125.4636,E,9.65,269.18,190923,,,D*7E
$GNRMC,103622.000,A,3542.1027,N,05125.4604,E,10.20,268.84,190923,,,D*43
$GNRMC,103623.000,A,3542.1026,N,05125.4568,E,10.72,268.17,190923,,,D*47
$GNRMC,103624.000,A,3542.1025,N,05125.4532,E,10.75,267.25,190923,,,D*45
$GNRMC,103626.000,A,3542.1022,N,05125.4458,E,11.06,269.75,190923,,,D*43
$GNRMC,103627.000,A,3542.1020,N,05125.4419,E,11.34,267.90,190923,,,D*41
$GNRMC,103628.000,A,3542.1018,N,05125.4380,E,11.65,267.75,190923,,,D*4D
